[
    {
        "name": "Alboloduy",
        "lat": 37.033,
        "lng": -2.621
    },
    {
        "name": "Alcolea",
        "lat": 38.0,
        "lng": -3.0
    },
    {
        "name": "Alhabia",
        "lat": 36.98,
        "lng": -2.58
    },
    {
        "name": "Alhalma de Almeria",
        "lat": 36.95,
        "lng": -2.56
    },
    {
        "name": "Alicún",
        "lat": 36.966,
        "lng": -2.6
    },
    {
        "name": "Almócita",
        "lat": 37,
        "lng": -2.783
    },
    {
        "name": "Alsodux",
        "lat": 37,
        "lng": -2.58
    },
    {
        "name": "Bayárcal",
        "lat": 37.033,
        "lng": -2.983
    },
    {
        "name": "Beires",
        "lat": 37.016,
        "lng": -2.783
    },
    {
        "name": "Bentarique",
        "lat": 36.983,
        "lng": -2.616
    },
    {
        "name": "Canjáyar",
        "lat": 37,
        "lng": -2.73
    },
    {
        "name": "Fondón",
        "lat": 36.983,
        "lng": -2.85
    },
    {
        "name": "Huécija",
        "lat": 36.966,
        "lng": -2.6
    },
    {
        "name": "Íllar",
        "lat": 36.983,
        "lng": -2.63
    },
    {
        "name": "Instinción",
        "lat": 36.983,
        "lng": -2.65
    },
    {
        "name": "Laujar de Andarax",
        "lat": 36.983,
        "lng": -2.883
    },
    {
        "name": "Ohanes",
        "lat": 37.03,
        "lng": -2.73
    },
    {
        "name": "Padules",
        "lat": 36.997,
        "lng": -2.773
    },
    {
        "name": "Paterna del Río",
        "lat": 37.016,
        "lng": -2.95
    },
    {
        "name": "Rágol",
        "lat": 36.983,
        "lng": -2.66
    },
    {
        "name": "Santa Cruz de Marchena",
        "lat": 37.016,
        "lng": -2.6
    },
    {
        "name": "Terque",
        "lat": 36.983,
        "lng": -2.583
    }
]
