[
    {
        "name": "Alboloduy",
        "lat": 37.033,
        "lng": -2.621
    },
    {
        "name": "Alcolea",
        "lat": 36.9736,
        "lng": -2.9613
    },
    {
        "name": "Alhabia",
        "lat": 36.9898,
        "lng": -2.587
    },
    {
        "name": "Alhalma de Almeria",
        "lat": 36.9571,
        "lng": -2.5687
    },
    {
        "name": "Alicún",
        "lat": 36.9664,
        "lng": -2.602
    },
    {
        "name": "Almócita",
        "lat": 37.0029,
        "lng": -2.7901
    },
    {
        "name": "Alsodux",
        "lat": 37.0024,
        "lng": -2.5944
    },
    {
        "name": "Bayárcal",
        "lat": 37.0303,
        "lng": -2.9954
    },
    {
        "name": "Beires",
        "lat": 37.0121,
        "lng": -2.7907
    },
    {
        "name": "Bentarique",
        "lat": 36.9872,
        "lng": -2.6194
    },
    {
        "name": "Canjáyar",
        "lat": 37.0090,
        "lng": -2.7407
    },
    {
        "name": "Fondón",
        "lat": 36.9807,
        "lng": -2.8567
    },
    {
        "name": "Huécija",
        "lat": 36.9678,
        "lng": -2.6092
    },
    {
        "name": "Íllar",
        "lat": 36.9853,
        "lng": -2.6391
    },
    {
        "name": "Instinción",
        "lat": 36.9931,
        "lng": -2.6597
    },
    {
        "name": "Laujar de Andarax",
        "lat": 36.9941,
        "lng": -2.8925
    },
    {
        "name": "Ohanes",
        "lat": 37.0383,
        "lng": -2.7452
    },
    {
        "name": "Padules",
        "lat": 36.9989,
        "lng": -2.7741
    },
    {
        "name": "Paterna del Río",
        "lat": 37.022,
        "lng": -2.9529
    },
    {
        "name": "Rágol",
        "lat": 36.9955,
        "lng": -2.6806
    },
    {
        "name": "Santa Cruz de Marchena",
        "lat": 37.0164,
        "lng": -2.6032
    },
    {
        "name": "Terque",
        "lat": 36.9841,
        "lng": -2.5974
    }
]
